{
"type": "FeatureCollection",
"name": "city-points",
"crs": { "type": "name", "properties": { "name": "urn:ogc:def:crs:EPSG::4269" } },
"features": [
{ "type": "Feature", "properties": { "city": "New York", "state": "NY", "pop_2022": 8622467, "pop_2017": 8560072, "area": 300.45559452480001 }, "geometry": { "type": "Point", "coordinates": [ -73.9386769, 40.6627117 ] } },
{ "type": "Feature", "properties": { "city": "Los Angeles", "state": "CA", "pop_2022": 3881041, "pop_2017": 3949776, "area": 470.51434492919998 }, "geometry": { "type": "Point", "coordinates": [ -118.4108248, 34.0193936 ] } },
{ "type": "Feature", "properties": { "city": "Chicago", "state": "IL", "pop_2022": 2721914, "pop_2017": 2722586, "area": 227.74668151949999 }, "geometry": { "type": "Point", "coordinates": [ -87.6849386, 41.8370453 ] } },
{ "type": "Feature", "properties": { "city": "Houston", "state": "TX", "pop_2022": 2296253, "pop_2017": 2267336, "area": 640.60280032319997 }, "geometry": { "type": "Point", "coordinates": [ -95.3888059, 29.7857435 ] } },
{ "type": "Feature", "properties": { "city": "Phoenix", "state": "AZ", "pop_2022": 1609456, "pop_2017": 1574421, "area": 518.32762452899999 }, "geometry": { "type": "Point", "coordinates": [ -112.0901324, 33.5721544 ] } },
{ "type": "Feature", "properties": { "city": "Philadelphia", "state": "PA", "pop_2022": 1593208, "pop_2017": 1569657, "area": 134.35570618470001 }, "geometry": { "type": "Point", "coordinates": [ -75.1333459, 40.0093755 ] } },
{ "type": "Feature", "properties": { "city": "San Antonio", "state": "TX", "pop_2022": 1445662, "pop_2017": 1461623, "area": 498.91918872510001 }, "geometry": { "type": "Point", "coordinates": [ -98.5246346, 29.4628094 ] } },
{ "type": "Feature", "properties": { "city": "San Diego", "state": "CA", "pop_2022": 1383987, "pop_2017": 1390966, "area": 326.08519901099999 }, "geometry": { "type": "Point", "coordinates": [ -117.1355615, 32.814977 ] } },
{ "type": "Feature", "properties": { "city": "Dallas", "state": "TX", "pop_2022": 1300642, "pop_2017": 1300122, "area": 339.67449546030002 }, "geometry": { "type": "Point", "coordinates": [ -96.7665128, 32.7933334 ] } },
{ "type": "Feature", "properties": { "city": "San Jose", "state": "CA", "pop_2022": 1001176, "pop_2017": 1023031, "area": 177.93763094249999 }, "geometry": { "type": "Point", "coordinates": [ -121.8145519, 37.2960112 ] } },
{ "type": "Feature", "properties": { "city": "Austin", "state": "TX", "pop_2022": 958202, "pop_2017": 916906, "area": 326.36269911959999 }, "geometry": { "type": "Point", "coordinates": [ -97.7541339, 30.2986219 ] } },
{ "type": "Feature", "properties": { "city": "Jacksonville", "state": "FL", "pop_2022": 950203, "pop_2017": 867313, "area": 747.25652880450002 }, "geometry": { "type": "Point", "coordinates": [ -81.6616028, 30.3368643 ] } },
{ "type": "Feature", "properties": { "city": "Fort Worth", "state": "TX", "pop_2022": 924663, "pop_2017": 835129, "area": 350.26755590969998 }, "geometry": { "type": "Point", "coordinates": [ -97.3485732, 32.7819538 ] } },
{ "type": "Feature", "properties": { "city": "Columbus", "state": "OH", "pop_2022": 902449, "pop_2017": 852144, "area": 220.72405804019999 }, "geometry": { "type": "Point", "coordinates": [ -82.9848818, 39.9839384 ] } },
{ "type": "Feature", "properties": { "city": "Indianapolis city (balance)", "state": "IN", "pop_2022": 882006, "pop_2017": 853431, "area": 361.01451427469999 }, "geometry": { "type": "Point", "coordinates": [ -86.1459355, 39.7766644 ] } },
{ "type": "Feature", "properties": { "city": "Charlotte", "state": "NC", "pop_2022": 875045, "pop_2017": 826060, "area": 310.75710314219998 }, "geometry": { "type": "Point", "coordinates": [ -80.8309902, 35.2090447 ] } },
{ "type": "Feature", "properties": { "city": "San Francisco", "state": "CA", "pop_2022": 851036, "pop_2017": 864263, "area": 46.699439400899998 }, "geometry": { "type": "Point", "coordinates": [ -123.0322294, 37.7272391 ] } },
{ "type": "Feature", "properties": { "city": "Seattle", "state": "WA", "pop_2022": 734603, "pop_2017": 688245, "area": 83.999944957500006 }, "geometry": { "type": "Point", "coordinates": [ -122.3515382, 47.6193352 ] } },
{ "type": "Feature", "properties": { "city": "Denver", "state": "CO", "pop_2022": 710800, "pop_2017": 678467, "area": 153.07326198449999 }, "geometry": { "type": "Point", "coordinates": [ -104.8811054, 39.7618502 ] } },
{ "type": "Feature", "properties": { "city": "Nashville-Davidson metropolitan government (balance)", "state": "TN", "pop_2022": 684103, "pop_2017": 654187, "area": 475.56335609640001 }, "geometry": { "type": "Point", "coordinates": [ -86.7850016, 36.1718001 ] } },
{ "type": "Feature", "properties": { "city": "Oklahoma City", "state": "OK", "pop_2022": 681088, "pop_2017": 629191, "area": 606.47521282920002 }, "geometry": { "type": "Point", "coordinates": [ -97.5136565, 35.4670795 ] } },
{ "type": "Feature", "properties": { "city": "El Paso", "state": "TX", "pop_2022": 677181, "pop_2017": 678266, "area": 258.78685858739999 }, "geometry": { "type": "Point", "coordinates": [ -106.4311055, 31.8477804 ] } },
{ "type": "Feature", "properties": { "city": "Washington", "state": null, "pop_2022": 670587, "pop_2017": 672391, "area": 61.125878642399996 }, "geometry": { "type": "Point", "coordinates": [ -77.0165167, 38.9042474 ] } },
{ "type": "Feature", "properties": { "city": "Boston", "state": "MA", "pop_2022": 665945, "pop_2017": 669158, "area": 48.339976370400002 }, "geometry": { "type": "Point", "coordinates": [ -71.018253, 42.3385513 ] } },
{ "type": "Feature", "properties": { "city": "Portland", "state": "OR", "pop_2022": 646101, "pop_2017": 630331, "area": 133.4874502962 }, "geometry": { "type": "Point", "coordinates": [ -122.649971, 45.5369506 ] } },
{ "type": "Feature", "properties": { "city": "Las Vegas", "state": "NV", "pop_2022": 644835, "pop_2017": 621662, "area": 141.8614272504 }, "geometry": { "type": "Point", "coordinates": [ -115.2640367, 36.2334989 ] } },
{ "type": "Feature", "properties": { "city": "Detroit", "state": "MI", "pop_2022": 636787, "pop_2017": 679865, "area": 138.73399640099998 }, "geometry": { "type": "Point", "coordinates": [ -83.1022365, 42.3830375 ] } },
{ "type": "Feature", "properties": { "city": "Memphis", "state": "TN", "pop_2022": 630027, "pop_2017": 654723, "area": 296.2007026407 }, "geometry": { "type": "Point", "coordinates": [ -89.967455, 35.1090259 ] } },
{ "type": "Feature", "properties": { "city": "Louisville/Jefferson County metro government (balance)", "state": "KY", "pop_2022": 629176, "pop_2017": 615478, "area": 263.06361145350002 }, "geometry": { "type": "Point", "coordinates": [ -85.6473774, 38.1653759 ] } },
{ "type": "Feature", "properties": { "city": "Baltimore", "state": "MD", "pop_2022": 584548, "pop_2017": 619796, "area": 80.945605540800003 }, "geometry": { "type": "Point", "coordinates": [ -76.6104761, 39.3000324 ] } },
{ "type": "Feature", "properties": { "city": "Milwaukee", "state": "WI", "pop_2022": 573299, "pop_2017": 599086, "area": 96.1721648316 }, "geometry": { "type": "Point", "coordinates": [ -87.9666952, 43.0633484 ] } },
{ "type": "Feature", "properties": { "city": "Albuquerque", "state": "NM", "pop_2022": 562551, "pop_2017": 556718, "area": 187.26529883489999 }, "geometry": { "type": "Point", "coordinates": [ -106.6468093, 35.1047797 ] } },
{ "type": "Feature", "properties": { "city": "Fresno", "state": "CA", "pop_2022": 541528, "pop_2017": 519037, "area": 115.8174772326 }, "geometry": { "type": "Point", "coordinates": [ -119.7933595, 36.7826843 ] } },
{ "type": "Feature", "properties": { "city": "Tucson", "state": "AZ", "pop_2022": 541033, "pop_2017": 530905, "area": 242.18610569009999 }, "geometry": { "type": "Point", "coordinates": [ -110.8707734, 32.1530357 ] } },
{ "type": "Feature", "properties": { "city": "Sacramento", "state": "CA", "pop_2022": 523600, "pop_2017": 489650, "area": 98.645390157600005 }, "geometry": { "type": "Point", "coordinates": [ -121.4681605, 38.5676936 ] } },
{ "type": "Feature", "properties": { "city": "Kansas City", "state": "MO", "pop_2022": 505958, "pop_2017": 476974, "area": 314.67856408559999 }, "geometry": { "type": "Point", "coordinates": [ -94.5551167, 39.1223613 ] } },
{ "type": "Feature", "properties": { "city": "Mesa", "state": "AZ", "pop_2022": 503390, "pop_2017": 479317, "area": 141.3827817831 }, "geometry": { "type": "Point", "coordinates": [ -111.7164869, 33.4006255 ] } },
{ "type": "Feature", "properties": { "city": "Atlanta", "state": "GA", "pop_2022": 494838, "pop_2017": 465230, "area": 135.25250683229999 }, "geometry": { "type": "Point", "coordinates": [ -84.4226745, 33.7629088 ] } },
{ "type": "Feature", "properties": { "city": "Omaha", "state": "NE", "pop_2022": 489201, "pop_2017": 463081, "area": 142.9791994917 }, "geometry": { "type": "Point", "coordinates": [ -96.0534745, 41.2627048 ] } },
{ "type": "Feature", "properties": { "city": "Colorado Springs", "state": "CO", "pop_2022": 479612, "pop_2017": 450000, "area": 201.8670718779 }, "geometry": { "type": "Point", "coordinates": [ -104.760749, 38.8672553 ] } },
{ "type": "Feature", "properties": { "city": "Raleigh", "state": "NC", "pop_2022": 465517, "pop_2017": 449477, "area": 149.44665518639999 }, "geometry": { "type": "Point", "coordinates": [ -78.6410418, 35.831868 ] } },
{ "type": "Feature", "properties": { "city": "Long Beach", "state": "CA", "pop_2022": 462293, "pop_2017": 470489, "area": 50.671912648499998 }, "geometry": { "type": "Point", "coordinates": [ -118.1681803, 33.7807912 ] } },
{ "type": "Feature", "properties": { "city": "Virginia Beach", "state": "VA", "pop_2022": 457900, "pop_2017": 450057, "area": 244.71742632479999 }, "geometry": { "type": "Point", "coordinates": [ -76.0291418, 36.7795254 ] } },
{ "type": "Feature", "properties": { "city": "Miami", "state": "FL", "pop_2022": 443665, "pop_2017": 443007, "area": 35.995486012199997 }, "geometry": { "type": "Point", "coordinates": [ -80.2086152, 25.775163 ] } },
{ "type": "Feature", "properties": { "city": "Oakland", "state": "CA", "pop_2022": 437825, "pop_2017": 417442, "area": 55.963150600500001 }, "geometry": { "type": "Point", "coordinates": [ -122.22569, 37.7698464 ] } },
{ "type": "Feature", "properties": { "city": "Minneapolis", "state": "MN", "pop_2022": 426877, "pop_2017": 411452, "area": 53.999360672400002 }, "geometry": { "type": "Point", "coordinates": [ -93.2683198, 44.9633242 ] } },
{ "type": "Feature", "properties": { "city": "Tulsa", "state": "OK", "pop_2022": 411938, "pop_2017": 401352, "area": 197.76352038299999 }, "geometry": { "type": "Point", "coordinates": [ -95.9023162, 36.1279488 ] } },
{ "type": "Feature", "properties": { "city": "Bakersfield", "state": "CA", "pop_2022": 404321, "pop_2017": 372680, "area": 150.27196787459999 }, "geometry": { "type": "Point", "coordinates": [ -119.0379186, 35.3531712 ] } },
{ "type": "Feature", "properties": { "city": "Wichita", "state": "KS", "pop_2022": 395951, "pop_2017": 389054, "area": 162.9404521173 }, "geometry": { "type": "Point", "coordinates": [ -97.3458362, 37.6906377 ] } },
{ "type": "Feature", "properties": { "city": "Arlington", "state": "TX", "pop_2022": 393469, "pop_2017": 388225, "area": 95.841243154799997 }, "geometry": { "type": "Point", "coordinates": [ -97.1246912, 32.7007082 ] } },
{ "type": "Feature", "properties": { "city": "Tampa", "state": "FL", "pop_2022": 388768, "pop_2017": 368087, "area": 113.6378504547 }, "geometry": { "type": "Point", "coordinates": [ -82.4776179, 27.9662622 ] } },
{ "type": "Feature", "properties": { "city": "Aurora", "state": "CO", "pop_2022": 387349, "pop_2017": 357323, "area": 163.0084748292 }, "geometry": { "type": "Point", "coordinates": [ -104.720088, 39.7036326 ] } },
{ "type": "Feature", "properties": { "city": "New Orleans", "state": "LA", "pop_2022": 380408, "pop_2017": 388182, "area": 169.49854555920001 }, "geometry": { "type": "Point", "coordinates": [ -89.9345018, 30.0534195 ] } },
{ "type": "Feature", "properties": { "city": "Cleveland", "state": "OH", "pop_2022": 370365, "pop_2017": 388812, "area": 77.735060102700004 }, "geometry": { "type": "Point", "coordinates": [ -81.6794351, 41.4784623 ] } },
{ "type": "Feature", "properties": { "city": "Urban Honolulu", "state": "HI", "pop_2022": 348547, "pop_2017": 350788, "area": 60.621590729700003 }, "geometry": { "type": "Point", "coordinates": [ -157.8476402, 21.324347 ] } },
{ "type": "Feature", "properties": { "city": "Anaheim", "state": "CA", "pop_2022": 347111, "pop_2017": 349007, "area": 50.282631570599996 }, "geometry": { "type": "Point", "coordinates": [ -117.7586572, 33.8555018 ] } },
{ "type": "Feature", "properties": { "city": "San Juan", "state": "PR", "pop_2022": 322616, "pop_2017": 341657, "area": 39.811991462099996 }, "geometry": { "type": "Point", "coordinates": [ -66.0637465, 18.4045589 ] } },
{ "type": "Feature", "properties": { "city": "Lexington-Fayette", "state": "KY", "pop_2022": 321276, "pop_2017": 315109, "area": 283.85364085650002 }, "geometry": { "type": "Point", "coordinates": [ -84.4582721, 38.0406777 ] } },
{ "type": "Feature", "properties": { "city": "Stockton", "state": "CA", "pop_2022": 320030, "pop_2017": 304358, "area": 63.094172040899998 }, "geometry": { "type": "Point", "coordinates": [ -121.3088651, 37.9772431 ] } },
{ "type": "Feature", "properties": { "city": "Henderson", "state": "NV", "pop_2022": 318063, "pop_2017": 284817, "area": 120.52211886 }, "geometry": { "type": "Point", "coordinates": [ -115.0267996, 36.0089583 ] } },
{ "type": "Feature", "properties": { "city": "Corpus Christi", "state": "TX", "pop_2022": 317804, "pop_2017": 322726, "area": 162.2815199577 }, "geometry": { "type": "Point", "coordinates": [ -97.1733853, 27.7542524 ] } },
{ "type": "Feature", "properties": { "city": "Riverside", "state": "CA", "pop_2022": 316076, "pop_2017": 321570, "area": 81.148321940399995 }, "geometry": { "type": "Point", "coordinates": [ -117.3931676, 33.9381433 ] } },
{ "type": "Feature", "properties": { "city": "Santa Ana", "state": "CA", "pop_2022": 311379, "pop_2017": 334493, "area": 27.376248685499998 }, "geometry": { "type": "Point", "coordinates": [ -117.8828997, 33.7363317 ] } },
{ "type": "Feature", "properties": { "city": "Cincinnati", "state": "OH", "pop_2022": 308870, "pop_2017": 298957, "area": 77.914007800199997 }, "geometry": { "type": "Point", "coordinates": [ -84.5058289, 39.140183 ] } },
{ "type": "Feature", "properties": { "city": "St. Paul", "state": "MN", "pop_2022": 308806, "pop_2017": 300820, "area": 51.972291657 }, "geometry": { "type": "Point", "coordinates": [ -93.1040631, 44.948901 ] } },
{ "type": "Feature", "properties": { "city": "Orlando", "state": "FL", "pop_2022": 307738, "pop_2017": 269414, "area": 111.2355192663 }, "geometry": { "type": "Point", "coordinates": [ -81.2548051, 28.4086497 ] } },
{ "type": "Feature", "properties": { "city": "Newark", "state": "NJ", "pop_2022": 307355, "pop_2017": 282803, "area": 24.143368134599999 }, "geometry": { "type": "Point", "coordinates": [ -74.1725735, 40.7242204 ] } },
{ "type": "Feature", "properties": { "city": "Irvine", "state": "CA", "pop_2022": 304527, "pop_2017": 256877, "area": 65.612806587899996 }, "geometry": { "type": "Point", "coordinates": [ -117.7712541, 33.6783986 ] } },
{ "type": "Feature", "properties": { "city": "Pittsburgh", "state": "PA", "pop_2022": 303843, "pop_2017": 305012, "area": 55.377361610999998 }, "geometry": { "type": "Point", "coordinates": [ -79.9756758, 40.4399359 ] } },
{ "type": "Feature", "properties": { "city": "St. Louis", "state": "MO", "pop_2022": 298018, "pop_2017": 314867, "area": 61.719311639700003 }, "geometry": { "type": "Point", "coordinates": [ -90.2445816, 38.6356988 ] } },
{ "type": "Feature", "properties": { "city": "Greensboro", "state": "NC", "pop_2022": 297202, "pop_2017": 284816, "area": 133.8602746338 }, "geometry": { "type": "Point", "coordinates": [ -79.8236236, 36.0948502 ] } },
{ "type": "Feature", "properties": { "city": "Anchorage", "state": "AK", "pop_2022": 290674, "pop_2017": 298225, "area": 1706.9948528489999 }, "geometry": { "type": "Point", "coordinates": [ -149.2843294, 61.1742503 ] } },
{ "type": "Feature", "properties": { "city": "Lincoln", "state": "NE", "pop_2022": 290531, "pop_2017": 277315, "area": 99.968945204700006 }, "geometry": { "type": "Point", "coordinates": [ -96.6778954, 40.808943 ] } },
{ "type": "Feature", "properties": { "city": "Jersey City", "state": "NJ", "pop_2022": 287899, "pop_2017": 265932, "area": 14.7479555223 }, "geometry": { "type": "Point", "coordinates": [ -74.0647599, 40.7114174 ] } },
{ "type": "Feature", "properties": { "city": "Plano", "state": "TX", "pop_2022": 284948, "pop_2017": 281566, "area": 71.698393938600006 }, "geometry": { "type": "Point", "coordinates": [ -96.747944, 33.0507687 ] } },
{ "type": "Feature", "properties": { "city": "Durham", "state": "NC", "pop_2022": 284094, "pop_2017": 257232, "area": 116.75310023519999 }, "geometry": { "type": "Point", "coordinates": [ -78.8994971, 35.9780615 ] } },
{ "type": "Feature", "properties": { "city": "Buffalo", "state": "NY", "pop_2022": 276688, "pop_2017": 259574, "area": 40.378432980600003 }, "geometry": { "type": "Point", "coordinates": [ -78.8596862, 42.8924919 ] } },
{ "type": "Feature", "properties": { "city": "Chula Vista", "state": "CA", "pop_2022": 276103, "pop_2017": 264101, "area": 49.637297080799996 }, "geometry": { "type": "Point", "coordinates": [ -117.0151696, 32.6276701 ] } },
{ "type": "Feature", "properties": { "city": "Chandler", "state": "AZ", "pop_2022": 275618, "pop_2017": 245160, "area": 65.638824708599998 }, "geometry": { "type": "Point", "coordinates": [ -111.8518187, 33.2827655 ] } },
{ "type": "Feature", "properties": { "city": "Toledo", "state": "OH", "pop_2022": 269962, "pop_2017": 279455, "area": 80.487373180500001 }, "geometry": { "type": "Point", "coordinates": [ -83.5818608, 41.664071 ] } },
{ "type": "Feature", "properties": { "city": "Madison", "state": "WI", "pop_2022": 268516, "pop_2017": 248856, "area": 83.0876640165 }, "geometry": { "type": "Point", "coordinates": [ -89.4298563, 43.0878147 ] } },
{ "type": "Feature", "properties": { "city": "Gilbert", "state": "AZ", "pop_2022": 267267, "pop_2017": 232176, "area": 68.662625159699999 }, "geometry": { "type": "Point", "coordinates": [ -111.7431213, 33.3103453 ] } },
{ "type": "Feature", "properties": { "city": "Reno", "state": "NV", "pop_2022": 265196, "pop_2017": 239732, "area": 108.99198251369999 }, "geometry": { "type": "Point", "coordinates": [ -119.8499069, 39.549097 ] } },
{ "type": "Feature", "properties": { "city": "Fort Wayne", "state": "IN", "pop_2022": 264514, "pop_2017": 262450, "area": 110.6270627319 }, "geometry": { "type": "Point", "coordinates": [ -85.1438998, 41.0891325 ] } },
{ "type": "Feature", "properties": { "city": "North Las Vegas", "state": "NV", "pop_2022": 264022, "pop_2017": 234389, "area": 105.3181664964 }, "geometry": { "type": "Point", "coordinates": [ -115.0891808, 36.2898651 ] } },
{ "type": "Feature", "properties": { "city": "St. Petersburg", "state": "FL", "pop_2022": 259343, "pop_2017": 256031, "area": 61.803561362399996 }, "geometry": { "type": "Point", "coordinates": [ -82.6441305, 27.7627269 ] } },
{ "type": "Feature", "properties": { "city": "Lubbock", "state": "TX", "pop_2022": 258190, "pop_2017": 247323, "area": 141.96010900499999 }, "geometry": { "type": "Point", "coordinates": [ -101.888883, 33.5619007 ] } },
{ "type": "Feature", "properties": { "city": "Laredo", "state": "TX", "pop_2022": 255293, "pop_2017": 255305, "area": 106.8234371919 }, "geometry": { "type": "Point", "coordinates": [ -99.4891811, 27.5603788 ] } },
{ "type": "Feature", "properties": { "city": "Irving", "state": "TX", "pop_2022": 254962, "pop_2017": 235648, "area": 66.979024140600004 }, "geometry": { "type": "Point", "coordinates": [ -96.9700224, 32.8577478 ] } },
{ "type": "Feature", "properties": { "city": "Winston-Salem", "state": "NC", "pop_2022": 249571, "pop_2017": 240193, "area": 133.5834671886 }, "geometry": { "type": "Point", "coordinates": [ -80.2608286, 36.1028627 ] } },
{ "type": "Feature", "properties": { "city": "Chesapeake", "state": "VA", "pop_2022": 249377, "pop_2017": 235410, "area": 338.4545082633 }, "geometry": { "type": "Point", "coordinates": [ -76.3017884, 36.6793761 ] } },
{ "type": "Feature", "properties": { "city": "Glendale", "state": "AZ", "pop_2022": 248083, "pop_2017": 241543, "area": 67.126015499399998 }, "geometry": { "type": "Point", "coordinates": [ -112.1899006, 33.533111 ] } },
{ "type": "Feature", "properties": { "city": "Garland", "state": "TX", "pop_2022": 244026, "pop_2017": 235965, "area": 56.856868625700002 }, "geometry": { "type": "Point", "coordinates": [ -96.6303341, 32.9098262 ] } },
{ "type": "Feature", "properties": { "city": "Scottsdale", "state": "AZ", "pop_2022": 240537, "pop_2017": 239283, "area": 184.0021468857 }, "geometry": { "type": "Point", "coordinates": [ -111.8614483, 33.6842718 ] } },
{ "type": "Feature", "properties": { "city": "Norfolk", "state": "VA", "pop_2022": 236973, "pop_2017": 245752, "area": 53.274630895199998 }, "geometry": { "type": "Point", "coordinates": [ -76.2446413, 36.9230149 ] } },
{ "type": "Feature", "properties": { "city": "Arlington", "state": "VA", "pop_2022": 235845, "pop_2017": 229534, "area": 25.997268211200002 }, "geometry": { "type": "Point", "coordinates": [ -77.1007034, 38.8783374 ] } },
{ "type": "Feature", "properties": { "city": "Boise City", "state": "ID", "pop_2022": 234192, "pop_2017": 220859, "area": 84.552693439500004 }, "geometry": { "type": "Point", "coordinates": [ -116.2316555, 43.6002293 ] } },
{ "type": "Feature", "properties": { "city": "Fremont", "state": "CA", "pop_2022": 228795, "pop_2017": 230964, "area": 78.102589464899992 }, "geometry": { "type": "Point", "coordinates": [ -121.9411495, 37.4944602 ] } },
{ "type": "Feature", "properties": { "city": "Spokane", "state": "WA", "pop_2022": 227922, "pop_2017": 212982, "area": 68.7595937886 }, "geometry": { "type": "Point", "coordinates": [ -117.433322, 47.6669347 ] } },
{ "type": "Feature", "properties": { "city": "Richmond", "state": "VA", "pop_2022": 227171, "pop_2017": 220892, "area": 59.924676368699998 }, "geometry": { "type": "Point", "coordinates": [ -77.4760085, 37.531399 ] } },
{ "type": "Feature", "properties": { "city": "Santa Clarita", "state": "CA", "pop_2022": 225850, "pop_2017": 209489, "area": 73.613380054499999 }, "geometry": { "type": "Point", "coordinates": [ -118.5006927, 34.416504 ] } },
{ "type": "Feature", "properties": { "city": "Baton Rouge", "state": "LA", "pop_2022": 225500, "pop_2017": 227549, "area": 86.942697999299995 }, "geometry": { "type": "Point", "coordinates": [ -91.1331665, 30.4404433 ] } },
{ "type": "Feature", "properties": { "city": "Enterprise", "state": "NV", "pop_2022": 225461, "pop_2017": 155773, "area": 65.998878016500001 }, "geometry": { "type": "Point", "coordinates": [ -115.2278241, 36.009143 ] } },
{ "type": "Feature", "properties": { "city": "Hialeah", "state": "FL", "pop_2022": 222996, "pop_2017": 237523, "area": 21.581335561500001 }, "geometry": { "type": "Point", "coordinates": [ -80.302865, 25.8699408 ] } },
{ "type": "Feature", "properties": { "city": "San Bernardino", "state": "CA", "pop_2022": 221041, "pop_2017": 215252, "area": 62.100138672 }, "geometry": { "type": "Point", "coordinates": [ -117.2946349, 34.1411402 ] } },
{ "type": "Feature", "properties": { "city": "Spring Valley", "state": "NV", "pop_2022": 220114, "pop_2017": 195646, "area": 35.505071830799999 }, "geometry": { "type": "Point", "coordinates": [ -115.2636094, 36.0951781 ] } },
{ "type": "Feature", "properties": { "city": "Tacoma", "state": "WA", "pop_2022": 219234, "pop_2017": 207280, "area": 49.714176154500002 }, "geometry": { "type": "Point", "coordinates": [ -122.4598318, 47.2521991 ] } },
{ "type": "Feature", "properties": { "city": "Modesto", "state": "CA", "pop_2022": 218308, "pop_2017": 210166, "area": 43.357489461 }, "geometry": { "type": "Point", "coordinates": [ -121.0030494, 37.6375332 ] } },
{ "type": "Feature", "properties": { "city": "Huntsville", "state": "AL", "pop_2022": 215025, "pop_2017": 190501, "area": 223.63178679269998 }, "geometry": { "type": "Point", "coordinates": [ -86.6766704, 34.69772 ] } },
{ "type": "Feature", "properties": { "city": "Des Moines", "state": "IA", "pop_2022": 213164, "pop_2017": 214778, "area": 88.161974772299999 }, "geometry": { "type": "Point", "coordinates": [ -93.6102428, 41.5725898 ] } },
{ "type": "Feature", "properties": { "city": "Rochester", "state": "NY", "pop_2022": 210992, "pop_2017": 209463, "area": 35.761254200099998 }, "geometry": { "type": "Point", "coordinates": [ -77.6168907, 43.1699272 ] } },
{ "type": "Feature", "properties": { "city": "Port St. Lucie", "state": "FL", "pop_2022": 210520, "pop_2017": 178778, "area": 119.2153529853 }, "geometry": { "type": "Point", "coordinates": [ -80.3882609, 27.2805537 ] } },
{ "type": "Feature", "properties": { "city": "Yonkers", "state": "NY", "pop_2022": 209780, "pop_2017": 200999, "area": 18.005557283999998 }, "geometry": { "type": "Point", "coordinates": [ -73.8674464, 40.9458622 ] } },
{ "type": "Feature", "properties": { "city": "Moreno Valley", "state": "CA", "pop_2022": 209578, "pop_2017": 203691, "area": 51.309486528299999 }, "geometry": { "type": "Point", "coordinates": [ -117.2056845, 33.9232527 ] } },
{ "type": "Feature", "properties": { "city": "Fontana", "state": "CA", "pop_2022": 209279, "pop_2017": 207086, "area": 43.2775856799 }, "geometry": { "type": "Point", "coordinates": [ -117.462888, 34.109686 ] } },
{ "type": "Feature", "properties": { "city": "Fayetteville", "state": "NC", "pop_2022": 208697, "pop_2017": 210324, "area": 148.26482123310001 }, "geometry": { "type": "Point", "coordinates": [ -78.9735152, 35.0827658 ] } },
{ "type": "Feature", "properties": { "city": "Columbus", "state": "GA", "pop_2022": 204572, "pop_2017": 198647, "area": 216.49849933140001 }, "geometry": { "type": "Point", "coordinates": [ -84.874946, 32.510197 ] } },
{ "type": "Feature", "properties": { "city": "Worcester", "state": "MA", "pop_2022": 204191, "pop_2017": 184743, "area": 37.360068045299997 }, "geometry": { "type": "Point", "coordinates": [ -71.8077831, 42.2694781 ] } },
{ "type": "Feature", "properties": { "city": "Oxnard", "state": "CA", "pop_2022": 202279, "pop_2017": 206732, "area": 26.544527895599998 }, "geometry": { "type": "Point", "coordinates": [ -119.2075154, 34.1994364 ] } },
{ "type": "Feature", "properties": { "city": "Little Rock", "state": "AR", "pop_2022": 202218, "pop_2017": 197780, "area": 120.2801430402 }, "geometry": { "type": "Point", "coordinates": [ -92.358556, 34.7253928 ] } },
{ "type": "Feature", "properties": { "city": "Frisco", "state": "TX", "pop_2022": 202075, "pop_2017": 155363, "area": 68.586151877099994 }, "geometry": { "type": "Point", "coordinates": [ -96.8225959, 33.1554266 ] } },
{ "type": "Feature", "properties": { "city": "Augusta-Richmond County consolidated government (balance)", "state": "GA", "pop_2022": 201615, "pop_2017": 196899, "area": 302.28048034469998 }, "geometry": { "type": "Point", "coordinates": [ -82.0734218, 33.3655309 ] } },
{ "type": "Feature", "properties": { "city": "Salt Lake City", "state": "UT", "pop_2022": 201269, "pop_2017": 194188, "area": 110.8900736658 }, "geometry": { "type": "Point", "coordinates": [ -111.9309915, 40.7769281 ] } },
{ "type": "Feature", "properties": { "city": "Birmingham", "state": "AL", "pop_2022": 200431, "pop_2017": 212265, "area": 147.06899192699998 }, "geometry": { "type": "Point", "coordinates": [ -86.7970356, 33.5271744 ] } },
{ "type": "Feature", "properties": { "city": "Amarillo", "state": "TX", "pop_2022": 200360, "pop_2017": 197823, "area": 103.6143411732 }, "geometry": { "type": "Point", "coordinates": [ -101.8331073, 35.1980643 ] } },
{ "type": "Feature", "properties": { "city": "Montgomery", "state": "AL", "pop_2022": 199819, "pop_2017": 200761, "area": 159.85591157249999 }, "geometry": { "type": "Point", "coordinates": [ -86.2673072, 32.3485029 ] } },
{ "type": "Feature", "properties": { "city": "Cape Coral", "state": "FL", "pop_2022": 198912, "pop_2017": 173679, "area": 106.1222599008 }, "geometry": { "type": "Point", "coordinates": [ -81.9973643, 26.6431921 ] } },
{ "type": "Feature", "properties": { "city": "Sunrise Manor", "state": "NV", "pop_2022": 198325, "pop_2017": 193854, "area": 33.712743507299997 }, "geometry": { "type": "Point", "coordinates": [ -115.048722, 36.1783376 ] } },
{ "type": "Feature", "properties": { "city": "Tallahassee", "state": "FL", "pop_2022": 198259, "pop_2017": 188463, "area": 102.42758097 }, "geometry": { "type": "Point", "coordinates": [ -84.2522719, 30.4535287 ] } },
{ "type": "Feature", "properties": { "city": "Grand Rapids", "state": "MI", "pop_2022": 198096, "pop_2017": 195355, "area": 44.775552907799998 }, "geometry": { "type": "Point", "coordinates": [ -85.6555701, 42.961156 ] } },
{ "type": "Feature", "properties": { "city": "Huntington Beach", "state": "CA", "pop_2022": 197481, "pop_2017": 200415, "area": 26.981445605400001 }, "geometry": { "type": "Point", "coordinates": [ -118.0038344, 33.6980069 ] } },
{ "type": "Feature", "properties": { "city": "Grand Prairie", "state": "TX", "pop_2022": 197279, "pop_2017": 188664, "area": 72.511779611699993 }, "geometry": { "type": "Point", "coordinates": [ -97.0208035, 32.6861079 ] } },
{ "type": "Feature", "properties": { "city": "Overland Park", "state": "KS", "pop_2022": 196676, "pop_2017": 186147, "area": 75.217672272599998 }, "geometry": { "type": "Point", "coordinates": [ -94.6905839, 38.8890422 ] } },
{ "type": "Feature", "properties": { "city": "McKinney", "state": "TX", "pop_2022": 196160, "pop_2017": 164760, "area": 66.962632651199996 }, "geometry": { "type": "Point", "coordinates": [ -96.6641609, 33.2011245 ] } },
{ "type": "Feature", "properties": { "city": "Glendale", "state": "CA", "pop_2022": 194512, "pop_2017": 199750, "area": 30.478495004100001 }, "geometry": { "type": "Point", "coordinates": [ -118.2458301, 34.1813929 ] } },
{ "type": "Feature", "properties": { "city": "Sioux Falls", "state": "SD", "pop_2022": 193401, "pop_2017": 170401, "area": 82.670913854099993 }, "geometry": { "type": "Point", "coordinates": [ -96.7319616, 43.5406955 ] } },
{ "type": "Feature", "properties": { "city": "Knoxville", "state": "TN", "pop_2022": 191857, "pop_2017": 184465, "area": 98.731567291499999 }, "geometry": { "type": "Point", "coordinates": [ -83.9492703, 35.9706805 ] } },
{ "type": "Feature", "properties": { "city": "Peoria", "state": "AZ", "pop_2022": 191292, "pop_2017": 161383, "area": 176.69621442330001 }, "geometry": { "type": "Point", "coordinates": [ -112.308042, 33.7861861 ] } },
{ "type": "Feature", "properties": { "city": "Vancouver", "state": "WA", "pop_2022": 190700, "pop_2017": 171393, "area": 48.7479724875 }, "geometry": { "type": "Point", "coordinates": [ -122.5965674, 45.6371555 ] } },
{ "type": "Feature", "properties": { "city": "Akron", "state": "OH", "pop_2022": 190273, "pop_2017": 198252, "area": 61.932434592599996 }, "geometry": { "type": "Point", "coordinates": [ -81.5214295, 41.0804559 ] } },
{ "type": "Feature", "properties": { "city": "Paradise", "state": "NV", "pop_2022": 189733, "pop_2017": 231858, "area": 42.4038992949 }, "geometry": { "type": "Point", "coordinates": [ -115.1355187, 36.0871482 ] } },
{ "type": "Feature", "properties": { "city": "Providence", "state": "RI", "pop_2022": 189715, "pop_2017": 179509, "area": 18.405753408900001 }, "geometry": { "type": "Point", "coordinates": [ -71.4187841, 41.8230558 ] } },
{ "type": "Feature", "properties": { "city": "Brownsville", "state": "TX", "pop_2022": 186999, "pop_2017": 182083, "area": 131.79543075269999 }, "geometry": { "type": "Point", "coordinates": [ -97.4508477, 25.9956886 ] } },
{ "type": "Feature", "properties": { "city": "Mobile", "state": "AL", "pop_2022": 186316, "pop_2017": 192085, "area": 139.48083310589999 }, "geometry": { "type": "Point", "coordinates": [ -88.1002261, 30.668426 ] } },
{ "type": "Feature", "properties": { "city": "Shreveport", "state": "LA", "pop_2022": 186183, "pop_2017": 196217, "area": 108.1447509285 }, "geometry": { "type": "Point", "coordinates": [ -93.792193, 32.466879 ] } },
{ "type": "Feature", "properties": { "city": "Newport News", "state": "VA", "pop_2022": 185118, "pop_2017": 180775, "area": 68.995533707099995 }, "geometry": { "type": "Point", "coordinates": [ -76.5219802, 37.0761357 ] } },
{ "type": "Feature", "properties": { "city": "Fort Lauderdale", "state": "FL", "pop_2022": 182673, "pop_2017": 177175, "area": 34.581453063299996 }, "geometry": { "type": "Point", "coordinates": [ -80.1467315, 26.1412269 ] } },
{ "type": "Feature", "properties": { "city": "Aurora", "state": "IL", "pop_2022": 181405, "pop_2017": 200946, "area": 45.050389312500002 }, "geometry": { "type": "Point", "coordinates": [ -88.290099, 41.763455 ] } },
{ "type": "Feature", "properties": { "city": "Chattanooga", "state": "TN", "pop_2022": 181288, "pop_2017": 176291, "area": 142.3514190384 }, "geometry": { "type": "Point", "coordinates": [ -85.248386, 35.065958 ] } },
{ "type": "Feature", "properties": { "city": "Tempe", "state": "AZ", "pop_2022": 181005, "pop_2017": 178339, "area": 39.9804449616 }, "geometry": { "type": "Point", "coordinates": [ -111.9317823, 33.3884143 ] } },
{ "type": "Feature", "properties": { "city": "Santa Rosa", "state": "CA", "pop_2022": 178221, "pop_2017": 174244, "area": 42.535885649400001 }, "geometry": { "type": "Point", "coordinates": [ -122.7061814, 38.4458238 ] } },
{ "type": "Feature", "properties": { "city": "Eugene", "state": "OR", "pop_2022": 176755, "pop_2017": 163135, "area": 44.448650145899997 }, "geometry": { "type": "Point", "coordinates": [ -123.1190193, 44.0568478 ] } },
{ "type": "Feature", "properties": { "city": "Ontario", "state": "CA", "pop_2022": 176326, "pop_2017": 171041, "area": 49.984208703 }, "geometry": { "type": "Point", "coordinates": [ -117.6044326, 34.0376483 ] } },
{ "type": "Feature", "properties": { "city": "Elk Grove", "state": "CA", "pop_2022": 176105, "pop_2017": 166228, "area": 42.600732688800001 }, "geometry": { "type": "Point", "coordinates": [ -121.3849614, 38.4146207 ] } },
{ "type": "Feature", "properties": { "city": "Salem", "state": "OR", "pop_2022": 175754, "pop_2017": 163654, "area": 48.930911686800002 }, "geometry": { "type": "Point", "coordinates": [ -123.0230068, 44.9238996 ] } },
{ "type": "Feature", "properties": { "city": "Cary", "state": "NC", "pop_2022": 174880, "pop_2017": 159715, "area": 60.1281190224 }, "geometry": { "type": "Point", "coordinates": [ -78.8234436, 35.781302 ] } },
{ "type": "Feature", "properties": { "city": "Rancho Cucamonga", "state": "CA", "pop_2022": 174696, "pop_2017": 174573, "area": 46.5095098611 }, "geometry": { "type": "Point", "coordinates": [ -117.5660665, 34.1303055 ] } },
{ "type": "Feature", "properties": { "city": "Oceanside", "state": "CA", "pop_2022": 173722, "pop_2017": 174811, "area": 41.267713172400001 }, "geometry": { "type": "Point", "coordinates": [ -117.3062909, 33.2246006 ] } },
{ "type": "Feature", "properties": { "city": "Garden Grove", "state": "CA", "pop_2022": 171637, "pop_2017": 174812, "area": 17.953222201199999 }, "geometry": { "type": "Point", "coordinates": [ -117.9604719, 33.7787816 ] } },
{ "type": "Feature", "properties": { "city": "Lancaster", "state": "CA", "pop_2022": 171465, "pop_2017": 160113, "area": 94.281480621900002 }, "geometry": { "type": "Point", "coordinates": [ -118.1753054, 34.693558 ] } },
{ "type": "Feature", "properties": { "city": "Pembroke Pines", "state": "FL", "pop_2022": 170472, "pop_2017": 166530, "area": 32.681044538999998 }, "geometry": { "type": "Point", "coordinates": [ -80.3401706, 26.0147158 ] } },
{ "type": "Feature", "properties": { "city": "Springfield", "state": "MO", "pop_2022": 168873, "pop_2017": 165785, "area": 83.205977025599992 }, "geometry": { "type": "Point", "coordinates": [ -93.2926423, 37.194157 ] } },
{ "type": "Feature", "properties": { "city": "Fort Collins", "state": "CO", "pop_2022": 168758, "pop_2017": 159150, "area": 57.234128866200003 }, "geometry": { "type": "Point", "coordinates": [ -105.0648327, 40.5482164 ] } },
{ "type": "Feature", "properties": { "city": "Bayam√≥n", "state": "PR", "pop_2022": 168698, "pop_2017": 170245, "area": 27.086216543100001 }, "geometry": { "type": "Point", "coordinates": [ -66.1632527, 18.3800554 ] } },
{ "type": "Feature", "properties": { "city": "Clarksville", "state": "TN", "pop_2022": 167882, "pop_2017": 147771, "area": 99.745420717800002 }, "geometry": { "type": "Point", "coordinates": [ -87.3452162, 36.5664303 ] } },
{ "type": "Feature", "properties": { "city": "Palmdale", "state": "CA", "pop_2022": 166895, "pop_2017": 157358, "area": 106.0637294574 }, "geometry": { "type": "Point", "coordinates": [ -118.1054031, 34.5910383 ] } },
{ "type": "Feature", "properties": { "city": "Salinas", "state": "CA", "pop_2022": 162783, "pop_2017": 156811, "area": 23.5147382613 }, "geometry": { "type": "Point", "coordinates": [ -121.6337934, 36.6902168 ] } },
{ "type": "Feature", "properties": { "city": "Hayward", "state": "CA", "pop_2022": 160602, "pop_2017": 156917, "area": 45.818113255199997 }, "geometry": { "type": "Point", "coordinates": [ -122.104015, 37.626826 ] } },
{ "type": "Feature", "properties": { "city": "Corona", "state": "CA", "pop_2022": 158346, "pop_2017": 163585, "area": 39.892126130999998 }, "geometry": { "type": "Point", "coordinates": [ -117.5654945, 33.8619689 ] } },
{ "type": "Feature", "properties": { "city": "Paterson", "state": "NJ", "pop_2022": 157864, "pop_2017": 147890, "area": 8.4131618571000004 }, "geometry": { "type": "Point", "coordinates": [ -74.1628291, 40.9147662 ] } },
{ "type": "Feature", "properties": { "city": "Alexandria", "state": "VA", "pop_2022": 157594, "pop_2017": 154710, "area": 14.9352483852 }, "geometry": { "type": "Point", "coordinates": [ -77.0836695, 38.8192511 ] } },
{ "type": "Feature", "properties": { "city": "Macon-Bibb County", "state": "GA", "pop_2022": 156554, "pop_2017": 153621, "area": 249.3812610432 }, "geometry": { "type": "Point", "coordinates": [ -83.6941941, 32.8088446 ] } },
{ "type": "Feature", "properties": { "city": "Lakewood", "state": "CO", "pop_2022": 156149, "pop_2017": 151411, "area": 43.457385113999997 }, "geometry": { "type": "Point", "coordinates": [ -105.1175735, 39.6989385 ] } },
{ "type": "Feature", "properties": { "city": "Kansas City", "state": "KS", "pop_2022": 155438, "pop_2017": 151042, "area": 124.73677371869999 }, "geometry": { "type": "Point", "coordinates": [ -94.7417813, 39.1225389 ] } },
{ "type": "Feature", "properties": { "city": "Springfield", "state": "MA", "pop_2022": 155305, "pop_2017": 154613, "area": 31.869639172799999 }, "geometry": { "type": "Point", "coordinates": [ -72.5399783, 42.115454 ] } },
{ "type": "Feature", "properties": { "city": "Sunnyvale", "state": "CA", "pop_2022": 154573, "pop_2017": 151565, "area": 22.0600995615 }, "geometry": { "type": "Point", "coordinates": [ -122.0263165, 37.385797 ] } },
{ "type": "Feature", "properties": { "city": "Killeen", "state": "TX", "pop_2022": 153708, "pop_2017": 140513, "area": 54.627281666099996 }, "geometry": { "type": "Point", "coordinates": [ -97.731952, 31.0776691 ] } },
{ "type": "Feature", "properties": { "city": "Murfreesboro", "state": "TN", "pop_2022": 153487, "pop_2017": 126188, "area": 64.276663136400003 }, "geometry": { "type": "Point", "coordinates": [ -86.4212238, 35.8539148 ] } },
{ "type": "Feature", "properties": { "city": "Jackson", "state": "MS", "pop_2022": 153271, "pop_2017": 170393, "area": 111.6840331035 }, "geometry": { "type": "Point", "coordinates": [ -90.2128502, 32.315834 ] } },
{ "type": "Feature", "properties": { "city": "Hollywood", "state": "FL", "pop_2022": 152764, "pop_2017": 149750, "area": 27.2506905099 }, "geometry": { "type": "Point", "coordinates": [ -80.1646092, 26.0309669 ] } },
{ "type": "Feature", "properties": { "city": "Escondido", "state": "CA", "pop_2022": 151114, "pop_2017": 150783, "area": 37.347345664199999 }, "geometry": { "type": "Point", "coordinates": [ -117.074043, 33.1330533 ] } },
{ "type": "Feature", "properties": { "city": "Pasadena", "state": "TX", "pop_2022": 150620, "pop_2017": 153909, "area": 43.690001483700001 }, "geometry": { "type": "Point", "coordinates": [ -95.151055, 29.6549958 ] } },
{ "type": "Feature", "properties": { "city": "Bellevue", "state": "WA", "pop_2022": 150606, "pop_2017": 139014, "area": 33.467492787300003 }, "geometry": { "type": "Point", "coordinates": [ -122.1564797, 47.597837 ] } },
{ "type": "Feature", "properties": { "city": "Joliet", "state": "IL", "pop_2022": 150221, "pop_2017": 148172, "area": 66.122316503099995 }, "geometry": { "type": "Point", "coordinates": [ -88.1488463, 41.5177005 ] } },
{ "type": "Feature", "properties": { "city": "Charleston", "state": "SC", "pop_2022": 149960, "pop_2017": 131204, "area": 115.0521888087 }, "geometry": { "type": "Point", "coordinates": [ -79.9728961, 32.828017 ] } },
{ "type": "Feature", "properties": { "city": "Pomona", "state": "CA", "pop_2022": 149831, "pop_2017": 152366, "area": 22.984260413400001 }, "geometry": { "type": "Point", "coordinates": [ -117.7610909, 34.0584937 ] } },
{ "type": "Feature", "properties": { "city": "Mesquite", "state": "TX", "pop_2022": 149439, "pop_2017": 144118, "area": 49.1021466507 }, "geometry": { "type": "Point", "coordinates": [ -96.5841641, 32.7595502 ] } },
{ "type": "Feature", "properties": { "city": "Naperville", "state": "IL", "pop_2022": 149089, "pop_2017": 146431, "area": 39.157049259899999 }, "geometry": { "type": "Point", "coordinates": [ -88.162019, 41.7491725 ] } },
{ "type": "Feature", "properties": { "city": "Roseville", "state": "CA", "pop_2022": 148879, "pop_2017": 130705, "area": 44.086812283800001 }, "geometry": { "type": "Point", "coordinates": [ -121.3196342, 38.7702963 ] } },
{ "type": "Feature", "properties": { "city": "Bridgeport", "state": "CT", "pop_2022": 148470, "pop_2017": 147586, "area": 16.064323317900001 }, "geometry": { "type": "Point", "coordinates": [ -73.1957567, 41.1873933 ] } },
{ "type": "Feature", "properties": { "city": "Rockford", "state": "IL", "pop_2022": 148173, "pop_2017": 148640, "area": 65.083197464999998 }, "geometry": { "type": "Point", "coordinates": [ -89.0645531, 42.2588357 ] } },
{ "type": "Feature", "properties": { "city": "Savannah", "state": "GA", "pop_2022": 147583, "pop_2017": 145094, "area": 108.8869579083 }, "geometry": { "type": "Point", "coordinates": [ -81.1964916, 32.0180425 ] } },
{ "type": "Feature", "properties": { "city": "Syracuse", "state": "NY", "pop_2022": 146134, "pop_2017": 144405, "area": 25.0590780297 }, "geometry": { "type": "Point", "coordinates": [ -76.1435544, 43.0409981 ] } },
{ "type": "Feature", "properties": { "city": "Surprise", "state": "AZ", "pop_2022": 145591, "pop_2017": 129534, "area": 110.50406131049999 }, "geometry": { "type": "Point", "coordinates": [ -112.4525462, 33.6708012 ] } },
{ "type": "Feature", "properties": { "city": "Torrance", "state": "CA", "pop_2022": 145454, "pop_2017": 147190, "area": 20.516028904799999 }, "geometry": { "type": "Point", "coordinates": [ -118.3566183, 33.8304529 ] } },
{ "type": "Feature", "properties": { "city": "McAllen", "state": "TX", "pop_2022": 142722, "pop_2017": 139838, "area": 62.333026856099998 }, "geometry": { "type": "Point", "coordinates": [ -98.246083, 26.2249657 ] } },
{ "type": "Feature", "properties": { "city": "Gainesville", "state": "FL", "pop_2022": 142414, "pop_2017": 129394, "area": 63.985781960099999 }, "geometry": { "type": "Point", "coordinates": [ -82.3467929, 29.6795366 ] } },
{ "type": "Feature", "properties": { "city": "Fullerton", "state": "CA", "pop_2022": 142280, "pop_2017": 139976, "area": 22.420018506599998 }, "geometry": { "type": "Point", "coordinates": [ -117.9280247, 33.8857156 ] } },
{ "type": "Feature", "properties": { "city": "Denton", "state": "TX", "pop_2022": 142262, "pop_2017": 131097, "area": 96.921563696099994 }, "geometry": { "type": "Point", "coordinates": [ -97.1413455, 33.2174488 ] } },
{ "type": "Feature", "properties": { "city": "Olathe", "state": "KS", "pop_2022": 142114, "pop_2017": 134368, "area": 62.452952990999997 }, "geometry": { "type": "Point", "coordinates": [ -94.8200535, 38.8820305 ] } },
{ "type": "Feature", "properties": { "city": "Thornton", "state": "CO", "pop_2022": 141799, "pop_2017": 132310, "area": 36.504268515 }, "geometry": { "type": "Point", "coordinates": [ -104.9414128, 39.920433 ] } },
{ "type": "Feature", "properties": { "city": "Visalia", "state": "CA", "pop_2022": 141466, "pop_2017": 130047, "area": 38.170531327500001 }, "geometry": { "type": "Point", "coordinates": [ -119.3285195, 36.3280297 ] } },
{ "type": "Feature", "properties": { "city": "Waco", "state": "TX", "pop_2022": 140545, "pop_2017": 131996, "area": 91.004695481699997 }, "geometry": { "type": "Point", "coordinates": [ -97.1897498, 31.5579941 ] } },
{ "type": "Feature", "properties": { "city": "Metairie", "state": "LA", "pop_2022": 140046, "pop_2017": 144822, "area": 23.159033983800001 }, "geometry": { "type": "Point", "coordinates": [ -90.1777808, 29.997837 ] } },
{ "type": "Feature", "properties": { "city": "Carolina", "state": "PR", "pop_2022": 139201, "pop_2017": 144192, "area": 20.711651489099999 }, "geometry": { "type": "Point", "coordinates": [ -65.9798062, 18.4120758 ] } },
{ "type": "Feature", "properties": { "city": "West Valley City", "state": "UT", "pop_2022": 138868, "pop_2017": 135546, "area": 35.827021701900001 }, "geometry": { "type": "Point", "coordinates": [ -112.0117586, 40.6884927 ] } },
{ "type": "Feature", "properties": { "city": "Orange", "state": "CA", "pop_2022": 138728, "pop_2017": 140289, "area": 25.6671527112 }, "geometry": { "type": "Point", "coordinates": [ -117.8612654, 33.7869711 ] } },
{ "type": "Feature", "properties": { "city": "Warren", "state": "MI", "pop_2022": 138588, "pop_2017": 135147, "area": 34.376691878099997 }, "geometry": { "type": "Point", "coordinates": [ -83.0250007, 42.4929044 ] } },
{ "type": "Feature", "properties": { "city": "Pasadena", "state": "CA", "pop_2022": 137554, "pop_2017": 141231, "area": 22.959663912899998 }, "geometry": { "type": "Point", "coordinates": [ -118.1379537, 34.1606016 ] } },
{ "type": "Feature", "properties": { "city": "Dayton", "state": "OH", "pop_2022": 137305, "pop_2017": 140939, "area": 55.811502489600002 }, "geometry": { "type": "Point", "coordinates": [ -84.1996322, 39.7847429 ] } },
{ "type": "Feature", "properties": { "city": "Hampton", "state": "VA", "pop_2022": 137217, "pop_2017": 136255, "area": 51.460417651500002 }, "geometry": { "type": "Point", "coordinates": [ -76.2972931, 37.0479606 ] } },
{ "type": "Feature", "properties": { "city": "Cedar Rapids", "state": "IA", "pop_2022": 136929, "pop_2017": 130330, "area": 74.161888000199994 }, "geometry": { "type": "Point", "coordinates": [ -91.6789007, 41.9658502 ] } },
{ "type": "Feature", "properties": { "city": "Columbia", "state": "SC", "pop_2022": 136754, "pop_2017": 132236, "area": 138.26367370529999 }, "geometry": { "type": "Point", "coordinates": [ -80.9060995, 34.0405186 ] } },
{ "type": "Feature", "properties": { "city": "New Haven", "state": "CT", "pop_2022": 135736, "pop_2017": 130884, "area": 18.689971271400001 }, "geometry": { "type": "Point", "coordinates": [ -72.924953, 41.3108088 ] } },
{ "type": "Feature", "properties": { "city": "Elizabeth", "state": "NJ", "pop_2022": 135665, "pop_2017": 129363, "area": 12.318702353099999 }, "geometry": { "type": "Point", "coordinates": [ -74.1935028, 40.6663673 ] } },
{ "type": "Feature", "properties": { "city": "Stamford", "state": "CT", "pop_2022": 135413, "pop_2017": 128851, "area": 37.627490557800002 }, "geometry": { "type": "Point", "coordinates": [ -73.5460803, 41.0796114 ] } },
{ "type": "Feature", "properties": { "city": "Kent", "state": "WA", "pop_2022": 135169, "pop_2017": 126561, "area": 33.832729873799998 }, "geometry": { "type": "Point", "coordinates": [ -122.2127275, 47.3879703 ] } },
{ "type": "Feature", "properties": { "city": "Miramar", "state": "FL", "pop_2022": 135158, "pop_2017": 136415, "area": 28.853173849499999 }, "geometry": { "type": "Point", "coordinates": [ -80.3385818, 25.9725289 ] } },
{ "type": "Feature", "properties": { "city": "Victorville", "state": "CA", "pop_2022": 134417, "pop_2017": 121721, "area": 73.709647911899992 }, "geometry": { "type": "Point", "coordinates": [ -117.3535789, 34.5277346 ] } },
{ "type": "Feature", "properties": { "city": "Coral Springs", "state": "FL", "pop_2022": 133801, "pop_2017": 130110, "area": 22.864363622100001 }, "geometry": { "type": "Point", "coordinates": [ -80.2593014, 26.2707217 ] } },
{ "type": "Feature", "properties": { "city": "Sterling Heights", "state": "MI", "pop_2022": 133744, "pop_2017": 131996, "area": 36.447218379 }, "geometry": { "type": "Point", "coordinates": [ -83.0303162, 42.5812062 ] } },
{ "type": "Feature", "properties": { "city": "Midland", "state": "TX", "pop_2022": 132490, "pop_2017": 131286, "area": 75.981775369499999 }, "geometry": { "type": "Point", "coordinates": [ -102.1134666, 32.0246419 ] } },
{ "type": "Feature", "properties": { "city": "Carrollton", "state": "TX", "pop_2022": 132284, "pop_2017": 131240, "area": 36.653907361499996 }, "geometry": { "type": "Point", "coordinates": [ -96.8999404, 32.9893856 ] } },
{ "type": "Feature", "properties": { "city": "Santa Clara", "state": "CA", "pop_2022": 128058, "pop_2017": 124635, "area": 18.276465121200001 }, "geometry": { "type": "Point", "coordinates": [ -121.9679735, 37.3646207 ] } },
{ "type": "Feature", "properties": { "city": "Norman", "state": "OK", "pop_2022": 127701, "pop_2017": 119820, "area": 178.64590784039999 }, "geometry": { "type": "Point", "coordinates": [ -97.3452994, 35.240569 ] } },
{ "type": "Feature", "properties": { "city": "Fargo", "state": "ND", "pop_2022": 127319, "pop_2017": 118099, "area": 50.833359205199997 }, "geometry": { "type": "Point", "coordinates": [ -96.8290805, 46.8647005 ] } },
{ "type": "Feature", "properties": { "city": "Athens-Clarke County unified government (balance)", "state": "GA", "pop_2022": 126672, "pop_2017": 122292, "area": 116.4360395484 }, "geometry": { "type": "Point", "coordinates": [ -83.3700882, 33.9495967 ] } },
{ "type": "Feature", "properties": { "city": "Thousand Oaks", "state": "CA", "pop_2022": 126532, "pop_2017": 128909, "area": 55.257036248699997 }, "geometry": { "type": "Point", "coordinates": [ -118.874235, 34.1932896 ] } },
{ "type": "Feature", "properties": { "city": "Topeka", "state": "KS", "pop_2022": 126431, "pop_2017": 127139, "area": 61.661101659300002 }, "geometry": { "type": "Point", "coordinates": [ -95.6948251, 39.03468 ] } },
{ "type": "Feature", "properties": { "city": "Abilene", "state": "TX", "pop_2022": 126356, "pop_2017": 122762, "area": 106.66805703839999 }, "geometry": { "type": "Point", "coordinates": [ -99.7381473, 32.4545143 ] } },
{ "type": "Feature", "properties": { "city": "Columbia", "state": "MO", "pop_2022": 126172, "pop_2017": 118620, "area": 67.309692535799996 }, "geometry": { "type": "Point", "coordinates": [ -92.3263872, 38.9472896 ] } },
{ "type": "Feature", "properties": { "city": "Simi Valley", "state": "CA", "pop_2022": 126153, "pop_2017": 126546, "area": 41.541589346400002 }, "geometry": { "type": "Point", "coordinates": [ -118.7484575, 34.2668875 ] } },
{ "type": "Feature", "properties": { "city": "Allentown", "state": "PA", "pop_2022": 125292, "pop_2017": 120128, "area": 17.564215254299999 }, "geometry": { "type": "Point", "coordinates": [ -75.4783928, 40.5936476 ] } },
{ "type": "Feature", "properties": { "city": "Vallejo", "state": "CA", "pop_2022": 125132, "pop_2017": 120599, "area": 30.434879989799999 }, "geometry": { "type": "Point", "coordinates": [ -122.2623386, 38.1069086 ] } },
{ "type": "Feature", "properties": { "city": "Lewisville", "state": "TX", "pop_2022": 125028, "pop_2017": 103638, "area": 40.656319189199998 }, "geometry": { "type": "Point", "coordinates": [ -96.9746228, 33.0507245 ] } },
{ "type": "Feature", "properties": { "city": "Concord", "state": "CA", "pop_2022": 125007, "pop_2017": 128160, "area": 30.567632752799998 }, "geometry": { "type": "Point", "coordinates": [ -122.0015871, 37.9721841 ] } },
{ "type": "Feature", "properties": { "city": "Pearland", "state": "TX", "pop_2022": 124478, "pop_2017": 113693, "area": 48.723998766299999 }, "geometry": { "type": "Point", "coordinates": [ -95.3230117, 29.5557321 ] } },
{ "type": "Feature", "properties": { "city": "Lehigh Acres", "state": "FL", "pop_2022": 124440, "pop_2017": 116849, "area": 92.693782981799998 }, "geometry": { "type": "Point", "coordinates": [ -81.6388451, 26.6126953 ] } },
{ "type": "Feature", "properties": { "city": "Arvada", "state": "CO", "pop_2022": 123066, "pop_2017": 115320, "area": 38.974014307799997 }, "geometry": { "type": "Point", "coordinates": [ -105.1503061, 39.8337279 ] } },
{ "type": "Feature", "properties": { "city": "Independence", "state": "MO", "pop_2022": 122218, "pop_2017": 117369, "area": 77.988847107599995 }, "geometry": { "type": "Point", "coordinates": [ -94.3520821, 39.0854691 ] } },
{ "type": "Feature", "properties": { "city": "Ann Arbor", "state": "MI", "pop_2022": 122216, "pop_2017": 119303, "area": 28.330082094599998 }, "geometry": { "type": "Point", "coordinates": [ -83.7308596, 42.2761471 ] } },
{ "type": "Feature", "properties": { "city": "Lafayette", "state": "LA", "pop_2022": 121706, "pop_2017": 126476, "area": 56.015130085199999 }, "geometry": { "type": "Point", "coordinates": [ -92.028058, 30.2056 ] } },
{ "type": "Feature", "properties": { "city": "Palm Bay", "state": "FL", "pop_2022": 121513, "pop_2017": 107802, "area": 86.678575869599996 }, "geometry": { "type": "Point", "coordinates": [ -80.6582752, 27.9648903 ] } },
{ "type": "Feature", "properties": { "city": "Berkeley", "state": "CA", "pop_2022": 121385, "pop_2017": 120179, "area": 10.431769104900001 }, "geometry": { "type": "Point", "coordinates": [ -122.2987247, 37.8656733 ] } },
{ "type": "Feature", "properties": { "city": "Hartford", "state": "CT", "pop_2022": 121057, "pop_2017": 124390, "area": 17.379383006699999 }, "geometry": { "type": "Point", "coordinates": [ -72.6815789, 41.7659331 ] } },
{ "type": "Feature", "properties": { "city": "Rochester", "state": "MN", "pop_2022": 120848, "pop_2017": 112683, "area": 56.4852940938 }, "geometry": { "type": "Point", "coordinates": [ -92.4785919, 44.0142994 ] } },
{ "type": "Feature", "properties": { "city": "Clovis", "state": "CA", "pop_2022": 120607, "pop_2017": 104411, "area": 25.852117391099998 }, "geometry": { "type": "Point", "coordinates": [ -119.6849217, 36.8289665 ] } },
{ "type": "Feature", "properties": { "city": "Round Rock", "state": "TX", "pop_2022": 120465, "pop_2017": 116369, "area": 37.918045093499998 }, "geometry": { "type": "Point", "coordinates": [ -97.6600794, 30.5267667 ] } },
{ "type": "Feature", "properties": { "city": "College Station", "state": "TX", "pop_2022": 120451, "pop_2017": 107445, "area": 51.159245751900002 }, "geometry": { "type": "Point", "coordinates": [ -96.2963598, 30.5851598 ] } },
{ "type": "Feature", "properties": { "city": "Meridian", "state": "ID", "pop_2022": 119872, "pop_2017": 91917, "area": 36.858952330199998 }, "geometry": { "type": "Point", "coordinates": [ -116.4006622, 43.61149 ] } },
{ "type": "Feature", "properties": { "city": "Fairfield", "state": "CA", "pop_2022": 119420, "pop_2017": 112790, "area": 41.585901271200001 }, "geometry": { "type": "Point", "coordinates": [ -122.032386, 38.2620602 ] } },
{ "type": "Feature", "properties": { "city": "The Woodlands", "state": "TX", "pop_2022": 118402, "pop_2017": 109608, "area": 43.272614642400001 }, "geometry": { "type": "Point", "coordinates": [ -95.5098125, 30.172562 ] } },
{ "type": "Feature", "properties": { "city": "Richardson", "state": "TX", "pop_2022": 118063, "pop_2017": 111055, "area": 28.561967190899999 }, "geometry": { "type": "Point", "coordinates": [ -96.7080688, 32.9722914 ] } },
{ "type": "Feature", "properties": { "city": "Cambridge", "state": "MA", "pop_2022": 117962, "pop_2017": 110893, "area": 6.3968588540999995 }, "geometry": { "type": "Point", "coordinates": [ -71.1186798, 42.3760428 ] } },
{ "type": "Feature", "properties": { "city": "West Palm Beach", "state": "FL", "pop_2022": 117588, "pop_2017": 106805, "area": 53.871305202000002 }, "geometry": { "type": "Point", "coordinates": [ -80.1270377, 26.7451143 ] } },
{ "type": "Feature", "properties": { "city": "East Los Angeles", "state": "CA", "pop_2022": 117222, "pop_2017": 123905, "area": 7.453104516 }, "geometry": { "type": "Point", "coordinates": [ -118.1685666, 34.0315059 ] } },
{ "type": "Feature", "properties": { "city": "Billings", "state": "MT", "pop_2022": 117093, "pop_2017": 109082, "area": 45.571852883699997 }, "geometry": { "type": "Point", "coordinates": [ -108.5524749, 45.7885384 ] } },
{ "type": "Feature", "properties": { "city": "Clearwater", "state": "FL", "pop_2022": 116984, "pop_2017": 112794, "area": 26.174444867999998 }, "geometry": { "type": "Point", "coordinates": [ -82.7712562, 27.9794192 ] } },
{ "type": "Feature", "properties": { "city": "Wilmington", "state": "NC", "pop_2022": 116933, "pop_2017": 115261, "area": 51.4135648026 }, "geometry": { "type": "Point", "coordinates": [ -77.8857671, 34.209225 ] } },
{ "type": "Feature", "properties": { "city": "Evansville", "state": "IN", "pop_2022": 116906, "pop_2017": 119806, "area": 47.354748784199998 }, "geometry": { "type": "Point", "coordinates": [ -87.5347053, 37.9877366 ] } },
{ "type": "Feature", "properties": { "city": "Spring Hill", "state": "FL", "pop_2022": 116882, "pop_2017": 104722, "area": 59.917826954699997 }, "geometry": { "type": "Point", "coordinates": [ -82.5296584, 28.479207 ] } },
{ "type": "Feature", "properties": { "city": "West Jordan", "state": "UT", "pop_2022": 116383, "pop_2017": 111937, "area": 32.585611429799997 }, "geometry": { "type": "Point", "coordinates": [ -112.0012548, 40.6026661 ] } },
{ "type": "Feature", "properties": { "city": "North Charleston", "state": "SC", "pop_2022": 115755, "pop_2017": 108186, "area": 77.631798043800003 }, "geometry": { "type": "Point", "coordinates": [ -80.065, 32.9178812 ] } },
{ "type": "Feature", "properties": { "city": "Richmond", "state": "CA", "pop_2022": 115619, "pop_2017": 108853, "area": 30.042265710599999 }, "geometry": { "type": "Point", "coordinates": [ -122.360609, 37.9522779 ] } },
{ "type": "Feature", "properties": { "city": "Westminster", "state": "CO", "pop_2022": 115502, "pop_2017": 111895, "area": 31.618162976400001 }, "geometry": { "type": "Point", "coordinates": [ -105.0615135, 39.8801223 ] } },
{ "type": "Feature", "properties": { "city": "Manchester", "state": "NH", "pop_2022": 115037, "pop_2017": 110601, "area": 33.068566159200003 }, "geometry": { "type": "Point", "coordinates": [ -71.4441315, 42.9849406 ] } },
{ "type": "Feature", "properties": { "city": "Antioch", "state": "CA", "pop_2022": 115016, "pop_2017": 110026, "area": 29.170959632100001 }, "geometry": { "type": "Point", "coordinates": [ -121.7960638, 37.978336 ] } },
{ "type": "Feature", "properties": { "city": "Brandon", "state": "FL", "pop_2022": 114923, "pop_2017": 113124, "area": 33.133809723299997 }, "geometry": { "type": "Point", "coordinates": [ -82.2992552, 27.9359851 ] } },
{ "type": "Feature", "properties": { "city": "Carlsbad", "state": "CA", "pop_2022": 114745, "pop_2017": 113147, "area": 37.811646744299999 }, "geometry": { "type": "Point", "coordinates": [ -117.2841831, 33.1292841 ] } },
{ "type": "Feature", "properties": { "city": "Lowell", "state": "MA", "pop_2022": 114737, "pop_2017": 110964, "area": 13.6104134166 }, "geometry": { "type": "Point", "coordinates": [ -71.3210199, 42.6389955 ] } },
{ "type": "Feature", "properties": { "city": "Beaumont", "state": "TX", "pop_2022": 114573, "pop_2017": 118424, "area": 82.138327514099998 }, "geometry": { "type": "Point", "coordinates": [ -94.1453303, 30.084912 ] } },
{ "type": "Feature", "properties": { "city": "Waterbury", "state": "CT", "pop_2022": 114480, "pop_2017": 109250, "area": 28.5564200922 }, "geometry": { "type": "Point", "coordinates": [ -73.0366845, 41.5585001 ] } },
{ "type": "Feature", "properties": { "city": "Lakeland", "state": "FL", "pop_2022": 114404, "pop_2017": 104165, "area": 66.5608747518 }, "geometry": { "type": "Point", "coordinates": [ -81.9547721, 28.0554961 ] } },
{ "type": "Feature", "properties": { "city": "Provo", "state": "UT", "pop_2022": 114400, "pop_2017": 116199, "area": 41.701961772899999 }, "geometry": { "type": "Point", "coordinates": [ -111.6450565, 40.2453116 ] } },
{ "type": "Feature", "properties": { "city": "Broken Arrow", "state": "OK", "pop_2022": 114237, "pop_2017": 106264, "area": 62.960381441099997 }, "geometry": { "type": "Point", "coordinates": [ -95.7809963, 36.0365287 ] } },
{ "type": "Feature", "properties": { "city": "Springfield", "state": "IL", "pop_2022": 114214, "pop_2017": 116313, "area": 61.260797426399996 }, "geometry": { "type": "Point", "coordinates": [ -89.644572, 39.7910628 ] } },
{ "type": "Feature", "properties": { "city": "Elgin", "state": "IL", "pop_2022": 114190, "pop_2017": 112628, "area": 38.143203169499998 }, "geometry": { "type": "Point", "coordinates": [ -88.3256714, 42.0389632 ] } },
{ "type": "Feature", "properties": { "city": "High Point", "state": "NC", "pop_2022": 114120, "pop_2017": 109849, "area": 57.326783599800002 }, "geometry": { "type": "Point", "coordinates": [ -79.9927127, 35.9908031 ] } },
{ "type": "Feature", "properties": { "city": "Gresham", "state": "OR", "pop_2022": 113525, "pop_2017": 110336, "area": 23.518868759099998 }, "geometry": { "type": "Point", "coordinates": [ -122.4416088, 45.502319 ] } },
{ "type": "Feature", "properties": { "city": "League City", "state": "TX", "pop_2022": 113469, "pop_2017": 98215, "area": 51.361851340800001 }, "geometry": { "type": "Point", "coordinates": [ -95.1090929, 29.4900638 ] } },
{ "type": "Feature", "properties": { "city": "Odessa", "state": "TX", "pop_2022": 113353, "pop_2017": 115930, "area": 51.889127261399999 }, "geometry": { "type": "Point", "coordinates": [ -102.345314, 31.8804608 ] } },
{ "type": "Feature", "properties": { "city": "Peoria", "state": "IL", "pop_2022": 113054, "pop_2017": 115424, "area": 48.124706701500003 }, "geometry": { "type": "Point", "coordinates": [ -89.6171976, 40.7516409 ] } },
{ "type": "Feature", "properties": { "city": "Downey", "state": "CA", "pop_2022": 113052, "pop_2017": 113358, "area": 12.4091721468 }, "geometry": { "type": "Point", "coordinates": [ -118.1308561, 33.9382375 ] } },
{ "type": "Feature", "properties": { "city": "Lansing", "state": "MI", "pop_2022": 112986, "pop_2017": 115222, "area": 39.184936490699997 }, "geometry": { "type": "Point", "coordinates": [ -84.5608887, 42.7143412 ] } },
{ "type": "Feature", "properties": { "city": "Murrieta", "state": "CA", "pop_2022": 111899, "pop_2017": 110043, "area": 33.536027853900002 }, "geometry": { "type": "Point", "coordinates": [ -117.1904442, 33.5721337 ] } },
{ "type": "Feature", "properties": { "city": "Pompano Beach", "state": "FL", "pop_2022": 111790, "pop_2017": 107542, "area": 24.066004505399999 }, "geometry": { "type": "Point", "coordinates": [ -80.1338515, 26.2416215 ] } },
{ "type": "Feature", "properties": { "city": "Miami Gardens", "state": "FL", "pop_2022": 111618, "pop_2017": 113187, "area": 18.4756695552 }, "geometry": { "type": "Point", "coordinates": [ -80.2435855, 25.948892 ] } },
{ "type": "Feature", "properties": { "city": "Costa Mesa", "state": "CA", "pop_2022": 111490, "pop_2017": 112930, "area": 15.805779561 }, "geometry": { "type": "Point", "coordinates": [ -117.9123358, 33.6659055 ] } },
{ "type": "Feature", "properties": { "city": "Pueblo", "state": "CO", "pop_2022": 111430, "pop_2017": 109122, "area": 56.488262430600003 }, "geometry": { "type": "Point", "coordinates": [ -104.6108157, 38.2692279 ] } },
{ "type": "Feature", "properties": { "city": "Las Cruces", "state": "NM", "pop_2022": 111273, "pop_2017": 101014, "area": 76.932782912700006 }, "geometry": { "type": "Point", "coordinates": [ -106.7896951, 32.3264441 ] } },
{ "type": "Feature", "properties": { "city": "Ponce", "state": "PR", "pop_2022": 110867, "pop_2017": 120295, "area": 28.351464312600001 }, "geometry": { "type": "Point", "coordinates": [ -66.6236798, 17.9997109 ] } },
{ "type": "Feature", "properties": { "city": "Everett", "state": "WA", "pop_2022": 110847, "pop_2017": 107560, "area": 33.600513889799998 }, "geometry": { "type": "Point", "coordinates": [ -122.1898945, 47.9654125 ] } },
{ "type": "Feature", "properties": { "city": "San Buenaventura (Ventura)", "state": "CA", "pop_2022": 110358, "pop_2017": 110153, "area": 21.8733399027 }, "geometry": { "type": "Point", "coordinates": [ -119.2542062, 34.2677796 ] } },
{ "type": "Feature", "properties": { "city": "Temecula", "state": "CA", "pop_2022": 110114, "pop_2017": 110722, "area": 37.176901819199998 }, "geometry": { "type": "Point", "coordinates": [ -117.1317341, 33.4930728 ] } },
{ "type": "Feature", "properties": { "city": "Sugar Land", "state": "TX", "pop_2022": 110077, "pop_2017": 86886, "area": 40.467657215700001 }, "geometry": { "type": "Point", "coordinates": [ -95.6338008, 29.5927637 ] } },
{ "type": "Feature", "properties": { "city": "Santa Maria", "state": "CA", "pop_2022": 109543, "pop_2017": 104791, "area": 22.810189545 }, "geometry": { "type": "Point", "coordinates": [ -120.443559, 34.9330764 ] } },
{ "type": "Feature", "properties": { "city": "El Monte", "state": "CA", "pop_2022": 108682, "pop_2017": 115958, "area": 9.5570962343999994 }, "geometry": { "type": "Point", "coordinates": [ -118.0291358, 34.0746329 ] } },
{ "type": "Feature", "properties": { "city": "Dearborn", "state": "MI", "pop_2022": 108414, "pop_2017": 95295, "area": 24.246463784399999 }, "geometry": { "type": "Point", "coordinates": [ -83.2114879, 42.3130574 ] } },
{ "type": "Feature", "properties": { "city": "West Covina", "state": "CA", "pop_2022": 108173, "pop_2017": 107786, "area": 16.036350372899999 }, "geometry": { "type": "Point", "coordinates": [ -117.9099372, 34.0559412 ] } },
{ "type": "Feature", "properties": { "city": "Sparks", "state": "NV", "pop_2022": 108025, "pop_2017": 96786, "area": 36.492480109799999 }, "geometry": { "type": "Point", "coordinates": [ -119.7151535, 39.5743408 ] } },
{ "type": "Feature", "properties": { "city": "Greeley", "state": "CO", "pop_2022": 107949, "pop_2017": 100760, "area": 49.433338983600002 }, "geometry": { "type": "Point", "coordinates": [ -104.7710426, 40.4140338 ] } },
{ "type": "Feature", "properties": { "city": "Centennial", "state": "CO", "pop_2022": 107702, "pop_2017": 108448, "area": 30.1561501527 }, "geometry": { "type": "Point", "coordinates": [ -104.8638076, 39.5908637 ] } },
{ "type": "Feature", "properties": { "city": "Sandy Springs", "state": "GA", "pop_2022": 107221, "pop_2017": 103703, "area": 37.662680484 }, "geometry": { "type": "Point", "coordinates": [ -84.3688886, 33.9315017 ] } },
{ "type": "Feature", "properties": { "city": "Green Bay", "state": "WI", "pop_2022": 106846, "pop_2017": 104796, "area": 45.478634444100003 }, "geometry": { "type": "Point", "coordinates": [ -87.9865684, 44.5215424 ] } },
{ "type": "Feature", "properties": { "city": "Inglewood", "state": "CA", "pop_2022": 106806, "pop_2017": 111006, "area": 9.0672469173000003 }, "geometry": { "type": "Point", "coordinates": [ -118.3442743, 33.9560678 ] } },
{ "type": "Feature", "properties": { "city": "Hillsboro", "state": "OR", "pop_2022": 106612, "pop_2017": 102396, "area": 25.8431011839 }, "geometry": { "type": "Point", "coordinates": [ -122.9353955, 45.5267977 ] } },
{ "type": "Feature", "properties": { "city": "Columbia", "state": "MD", "pop_2022": 106600, "pop_2017": 103170, "area": 31.933330228799999 }, "geometry": { "type": "Point", "coordinates": [ -76.8590498, 39.201146 ] } },
{ "type": "Feature", "properties": { "city": "Boulder", "state": "CO", "pop_2022": 106598, "pop_2017": 106271, "area": 26.893755345599999 }, "geometry": { "type": "Point", "coordinates": [ -105.251251, 40.0244306 ] } },
{ "type": "Feature", "properties": { "city": "Tyler", "state": "TX", "pop_2022": 106440, "pop_2017": 102561, "area": 57.789392789700003 }, "geometry": { "type": "Point", "coordinates": [ -95.3058858, 32.3172584 ] } },
{ "type": "Feature", "properties": { "city": "Burbank", "state": "CA", "pop_2022": 106389, "pop_2017": 104765, "area": 17.316238668299999 }, "geometry": { "type": "Point", "coordinates": [ -118.3264045, 34.1900793 ] } },
{ "type": "Feature", "properties": { "city": "Davie", "state": "FL", "pop_2022": 105821, "pop_2017": 101543, "area": 34.894113754499998 }, "geometry": { "type": "Point", "coordinates": [ -80.2830133, 26.0791688 ] } },
{ "type": "Feature", "properties": { "city": "Tuscaloosa", "state": "AL", "pop_2022": 105797, "pop_2017": 97373, "area": 62.149915456199999 }, "geometry": { "type": "Point", "coordinates": [ -87.5283003, 33.2344041 ] } },
{ "type": "Feature", "properties": { "city": "El Cajon", "state": "CA", "pop_2022": 105721, "pop_2017": 103314, "area": 14.5095074982 }, "geometry": { "type": "Point", "coordinates": [ -116.9604685, 32.8016733 ] } },
{ "type": "Feature", "properties": { "city": "Jurupa Valley", "state": "CA", "pop_2022": 105672, "pop_2017": 102202, "area": 42.939979453799999 }, "geometry": { "type": "Point", "coordinates": [ -117.4676122, 34.0025907 ] } },
{ "type": "Feature", "properties": { "city": "Allen", "state": "TX", "pop_2022": 105444, "pop_2017": 96865, "area": 26.401799466899998 }, "geometry": { "type": "Point", "coordinates": [ -96.6730316, 33.1097362 ] } },
{ "type": "Feature", "properties": { "city": "Renton", "state": "WA", "pop_2022": 105355, "pop_2017": 99692, "area": 23.540317000199998 }, "geometry": { "type": "Point", "coordinates": [ -122.1946129, 47.4791902 ] } },
{ "type": "Feature", "properties": { "city": "Concord", "state": "NC", "pop_2022": 105335, "pop_2017": 87607, "area": 64.032460291799993 }, "geometry": { "type": "Point", "coordinates": [ -80.6355101, 35.3920937 ] } },
{ "type": "Feature", "properties": { "city": "Brockton", "state": "MA", "pop_2022": 104713, "pop_2017": 95161, "area": 21.3328971999 }, "geometry": { "type": "Point", "coordinates": [ -71.0246378, 42.082543 ] } },
{ "type": "Feature", "properties": { "city": "Rio Rancho", "state": "NM", "pop_2022": 104351, "pop_2017": 93317, "area": 103.3608947085 }, "geometry": { "type": "Point", "coordinates": [ -106.6988665, 35.2850704 ] } },
{ "type": "Feature", "properties": { "city": "San Mateo", "state": "CA", "pop_2022": 104165, "pop_2017": 103500, "area": 12.1340307231 }, "geometry": { "type": "Point", "coordinates": [ -122.3106003, 37.5603104 ] } },
{ "type": "Feature", "properties": { "city": "Rialto", "state": "CA", "pop_2022": 103873, "pop_2017": 102708, "area": 24.0915179934 }, "geometry": { "type": "Point", "coordinates": [ -117.3892148, 34.1174193 ] } },
{ "type": "Feature", "properties": { "city": "Spokane Valley", "state": "WA", "pop_2022": 103761, "pop_2017": 94424, "area": 37.7193962574 }, "geometry": { "type": "Point", "coordinates": [ -117.2327795, 47.6633532 ] } },
{ "type": "Feature", "properties": { "city": "Menifee", "state": "CA", "pop_2022": 103680, "pop_2017": 86820, "area": 46.4634728415 }, "geometry": { "type": "Point", "coordinates": [ -117.1843827, 33.6898575 ] } },
{ "type": "Feature", "properties": { "city": "Daly City", "state": "CA", "pop_2022": 103648, "pop_2017": 106480, "area": 7.6384151415000003 }, "geometry": { "type": "Point", "coordinates": [ -122.4686688, 37.686193 ] } },
{ "type": "Feature", "properties": { "city": "South Bend", "state": "IN", "pop_2022": 103084, "pop_2017": 101928, "area": 41.8950843597 }, "geometry": { "type": "Point", "coordinates": [ -86.2688089, 41.6766433 ] } },
{ "type": "Feature", "properties": { "city": "Chico", "state": "CA", "pop_2022": 102790, "pop_2017": 90660, "area": 34.521162003900002 }, "geometry": { "type": "Point", "coordinates": [ -121.8177197, 39.7589514 ] } },
{ "type": "Feature", "properties": { "city": "Nampa", "state": "ID", "pop_2022": 102598, "pop_2017": 89576, "area": 34.772652872099997 }, "geometry": { "type": "Point", "coordinates": [ -116.5656313, 43.585541 ] } },
{ "type": "Feature", "properties": { "city": "Wichita Falls", "state": "TX", "pop_2022": 102482, "pop_2017": 104621, "area": 72.232664060700003 }, "geometry": { "type": "Point", "coordinates": [ -98.5258481, 33.9066543 ] } },
{ "type": "Feature", "properties": { "city": "Riverview", "state": "FL", "pop_2022": 102467, "pop_2017": 88191, "area": 46.180698606900002 }, "geometry": { "type": "Point", "coordinates": [ -82.3044864, 27.8242746 ] } },
{ "type": "Feature", "properties": { "city": "Norwalk", "state": "CA", "pop_2022": 101893, "pop_2017": 106404, "area": 9.707310756 }, "geometry": { "type": "Point", "coordinates": [ -118.0834525, 33.9076003 ] } },
{ "type": "Feature", "properties": { "city": "Lee's Summit", "state": "MO", "pop_2022": 101728, "pop_2017": 95270, "area": 63.8934751026 }, "geometry": { "type": "Point", "coordinates": [ -94.3847631, 38.9216011 ] } },
{ "type": "Feature", "properties": { "city": "Vacaville", "state": "CA", "pop_2022": 101631, "pop_2017": 96918, "area": 29.869959705300001 }, "geometry": { "type": "Point", "coordinates": [ -121.9686015, 38.3586211 ] } },
{ "type": "Feature", "properties": { "city": "Highlands Ranch", "state": "CO", "pop_2022": 101514, "pop_2017": 105264, "area": 24.268343299200001 }, "geometry": { "type": "Point", "coordinates": [ -104.971077, 39.5408294 ] } },
{ "type": "Feature", "properties": { "city": "Davenport", "state": "IA", "pop_2022": 101448, "pop_2017": 102268, "area": 63.922343413500002 }, "geometry": { "type": "Point", "coordinates": [ -90.6039479, 41.5568204 ] } },
{ "type": "Feature", "properties": { "city": "San Tan Valley", "state": "AZ", "pop_2022": 101207, "pop_2017": 90665, "area": 75.792310694099996 }, "geometry": { "type": "Point", "coordinates": [ -111.5628227, 33.1785918 ] } },
{ "type": "Feature", "properties": { "city": "Quincy", "state": "MA", "pop_2022": 100981, "pop_2017": 93824, "area": 16.572564508500001 }, "geometry": { "type": "Point", "coordinates": [ -71.0089876, 42.2610059 ] } },
{ "type": "Feature", "properties": { "city": "Edinburg", "state": "TX", "pop_2022": 100964, "pop_2017": 86123, "area": 44.722437516900001 }, "geometry": { "type": "Point", "coordinates": [ -98.1628367, 26.3210564 ] } },
{ "type": "Feature", "properties": { "city": "Lynn", "state": "MA", "pop_2022": 100653, "pop_2017": 93069, "area": 10.738835979299999 }, "geometry": { "type": "Point", "coordinates": [ -70.9620346, 42.4747664 ] } },
{ "type": "Feature", "properties": { "city": "New Bedford", "state": "MA", "pop_2022": 100620, "pop_2017": 95125, "area": 20.000776910399999 }, "geometry": { "type": "Point", "coordinates": [ -70.9379126, 41.6613028 ] } }
]
}
